{"type":"FeatureCollection","features":[{"type":"Feature","properties":{"name":"San Juan","population":355074},"geometry":{"type":"Point","coordinates":[-66.09340667724608,18.455837160395028]}},{"type":"Feature","properties":{"name":"Arecibo","population":96374},"geometry":{"type":"Point","coordinates":[-66.7210865020752,18.473177943424375]}},{"type":"Feature","properties":{"name":"Mayaguez","population":89028},"geometry":{"type":"Point","coordinates":[-67.14577674865723,18.200979018180664]}},{"type":"Feature","properties":{"name":"Ponce","population":149028},"geometry":{"type":"Point","coordinates":[-66.61697387695312,18.009426943534493]}},{"type":"Feature","properties":{"name":"Caguas","population":134481},"geometry":{"type":"Point","coordinates":[-66.03414058685303,18.23509861574432]}}]}